[

  {
    "Title": "Nice Property",
    "RealEstateType": "Apartment",
    "StreetName": "Birmensdorferstrasse",
    "StreetNumber": "108",
    "Zip": "8003",
    "City": "Zürich",
    "Latitude": 47.3706751,
    "Longitude": 8.521814599999999
  },
  {
    "Title": "Your new place",
    "RealEstateType": "Apartment",
    "StreetName": "Austrasse",
    "StreetNumber": "12c",
    "Zip": "5620",
    "City": "Bremgarten",
    "Latitude": 47.3530717,
    "Longitude": 8.3367594

  },
  {
    "Title": "What a house!",
    "RealEstateType": "House",
    "StreetName": "Aemtlerstrasse",
    "StreetNumber": "26",
    "Zip": "8003",
    "City": "Zürich",
    "Latitude": 47.3717845,
    "Longitude": 8.5159433

  },
  {
    "Title": "Ihre Wohnung auf dem Land",
    "RealEstateType": "Apartment",
    "StreetName": "Schürmatstarsse",
    "StreetNumber": "3",
    "Zip": "5621",
    "City": "Zufikon",
    "Latitude": 47.34478319999999,
    "Longitude": 8.3531107

  },
  {
    "Title": "Ihr nächstes haus!",
    "RealEstateType": "House",
    "StreetName": "Webermühle",
    "StreetNumber": "32",
    "Zip": "5432",
    "City": "Neuenhof",
    "Latitude": 0,
    "Longitude": 0
  },
  {
    "Title": "Villa dans la montagne",
    "RealEstateType": "House",
    "StreetName": "Crusch",
    "StreetNumber": "25",
    "Zip": "7503",
    "City": "Samedan",
    "Latitude": 46.5390309,
    "Longitude": 9.8752544

  }
]